[
  {
    "id": 1,
    "name": "Rajajipuram",
    "lat": 26.845,
    "lng": 80.88,
    "cost": 35,
    "roi": 30,
    "type": "Residential",
    "rent2bhk": 14000,
    "rent3bhk": 20000,
    "avgBuyPrice": 31.5
  },
  {
    "id": 2,
    "name": "Ashiyana",
    "lat": 26.79,
    "lng": 80.92,
    "cost": 45,
    "roi": 40,
    "type": "Residential",
    "rent2bhk": 18000,
    "rent3bhk": 26000,
    "avgBuyPrice": 45
  },
  {
    "id": 3,
    "name": "Krishna Nagar",
    "lat": 26.8,
    "lng": 80.9,
    "cost": 43,
    "roi": 38,
    "type": "Residential",
    "rent2bhk": 17000,
    "rent3bhk": 25000,
    "avgBuyPrice": 44.35
  },
  {
    "id": 4,
    "name": "Transport Nagar",
    "lat": 26.79,
    "lng": 80.9,
    "cost": 40,
    "roi": 35,
    "type": "Industrial",
    "rent2bhk": 16000,
    "rent3bhk": 24000,
    "avgBuyPrice": 48
  },
  {
    "id": 5,
    "name": "Dubagga",
    "lat": 26.83,
    "lng": 80.86,
    "cost": 28,
    "roi": 30,
    "type": "Developing",
    "rent2bhk": 12000,
    "rent3bhk": 18000,
    "avgBuyPrice": 36.33
  },
  {
    "id": 6,
    "name": "Mohanlalganj",
    "lat": 26.7,
    "lng": 81,
    "cost": 25,
    "roi": 70,
    "type": "Outer Growth",
    "rent2bhk": 8000,
    "rent3bhk": 12000,
    "avgBuyPrice": 40
  },
  {
    "id": 7,
    "name": "Gosainganj",
    "lat": 26.75,
    "lng": 81.05,
    "cost": 26,
    "roi": 65,
    "type": "Outer Growth",
    "rent2bhk": 9000,
    "rent3bhk": 14000,
    "avgBuyPrice": 25
  },
  {
    "id": 8,
    "name": "Bakshi Ka Talab",
    "lat": 26.93,
    "lng": 80.9,
    "cost": 27,
    "roi": 60,
    "type": "Growth",
    "rent2bhk": 10000,
    "rent3bhk": 15000,
    "avgBuyPrice": 25.3
  },
  {
    "id": 9,
    "name": "Safedabad",
    "lat": 26.88,
    "lng": 81.09,
    "cost": 42,
    "roi": 68,
    "type": "Growth",
    "rent2bhk": 16000,
    "rent3bhk": 24000,
    "avgBuyPrice": 44.7
  },
  {
    "id": 10,
    "name": "Tiwariganj",
    "lat": 26.87,
    "lng": 81.08,
    "cost": 40,
    "roi": 66,
    "type": "Growth",
    "rent2bhk": 15000,
    "rent3bhk": 23000,
    "avgBuyPrice": 48
  },
  {
    "id": 11,
    "name": "Uattardhona",
    "lat": 26.89,
    "lng": 81.07,
    "cost": 38,
    "roi": 62,
    "type": "Growth",
    "rent2bhk": 14000,
    "rent3bhk": 22000,
    "avgBuyPrice": 46.26
  },
  {
    "id": 12,
    "name": "Takrohi",
    "lat": 26.88,
    "lng": 80.99,
    "cost": 42,
    "roi": 55,
    "type": "Residential",
    "rent2bhk": 17000,
    "rent3bhk": 25000,
    "avgBuyPrice": 40
  },
  {
    "id": 13,
    "name": "Munshi Pulia",
    "lat": 26.9,
    "lng": 80.98,
    "cost": 45,
    "roi": 50,
    "type": "Developed",
    "rent2bhk": 20000,
    "rent3bhk": 30000,
    "avgBuyPrice": 41.67
  },
  {
    "id": 14,
    "name": "Kalyanpur",
    "lat": 26.9,
    "lng": 80.95,
    "cost": 42,
    "roi": 48,
    "type": "Residential",
    "rent2bhk": 18000,
    "rent3bhk": 26000,
    "avgBuyPrice": 43.47
  },
  {
    "id": 15,
    "name": "Vikas Nagar",
    "lat": 26.91,
    "lng": 80.96,
    "cost": 60,
    "roi": 35,
    "type": "Premium",
    "rent2bhk": 26000,
    "rent3bhk": 42000,
    "avgBuyPrice": 45
  },
  {
    "id": 16,
    "name": "Nishatganj",
    "lat": 26.86,
    "lng": 80.94,
    "cost": 55,
    "roi": 32,
    "type": "Developed",
    "rent2bhk": 25000,
    "rent3bhk": 40000,
    "avgBuyPrice": 66
  },
  {
    "id": 17,
    "name": "Nawabganj",
    "lat": 26.88,
    "lng": 80.91,
    "cost": 35,
    "roi": 30,
    "type": "Residential",
    "rent2bhk": 14000,
    "rent3bhk": 20000,
    "avgBuyPrice": 30
  },
  {
    "id": 18,
    "name": "Balaganj",
    "lat": 26.84,
    "lng": 80.9,
    "cost": 32,
    "roi": 28,
    "type": "Old City",
    "rent2bhk": 12000,
    "rent3bhk": 18000,
    "avgBuyPrice": 35
  },
  {
    "id": 19,
    "name": "Para Road",
    "lat": 26.8,
    "lng": 80.88,
    "cost": 30,
    "roi": 35,
    "type": "Developing",
    "rent2bhk": 16946,
    "rent3bhk": 26879,
    "avgBuyPrice": 45
  },
  {
    "id": 20,
    "name": "Deva Road",
    "lat": 26.89,
    "lng": 81.1,
    "cost": 35,
    "roi": 60,
    "type": "Growth",
    "rent2bhk": 15000,
    "rent3bhk": 23000,
    "avgBuyPrice": 37
  },
  {
    "id": 21,
    "name": "Amity University Road",
    "lat": 26.87,
    "lng": 81.05,
    "cost": 42,
    "roi": 65,
    "type": "Growth",
    "rent2bhk": 18000,
    "rent3bhk": 28000,
    "avgBuyPrice": 43.1
  },
  {
    "id": 22,
    "name": "Kapoorthala",
    "lat": 26.89,
    "lng": 80.96,
    "cost": 52,
    "roi": 35,
    "type": "Commercial",
    "rent2bhk": 26000,
    "rent3bhk": 42000,
    "avgBuyPrice": 62.4
  },
  {
    "id": 23,
    "name": "Indraprastha",
    "lat": 26.87,
    "lng": 80.96,
    "cost": 38,
    "roi": 50,
    "type": "Residential",
    "rent2bhk": 15000,
    "rent3bhk": 22000,
    "avgBuyPrice": 44
  },
  {
    "id": 24,
    "name": "Anora Kala",
    "lat": 26.89,
    "lng": 81.08,
    "cost": 42,
    "roi": 60,
    "type": "Growth",
    "rent2bhk": 16000,
    "rent3bhk": 24000,
    "avgBuyPrice": 49.5
  },
  {
    "id": 25,
    "name": "Matiyari",
    "lat": 26.88,
    "lng": 81.06,
    "cost": 38,
    "roi": 58,
    "type": "Growth",
    "rent2bhk": 15000,
    "rent3bhk": 23000,
    "avgBuyPrice": 40
  },
  {
    "id": 26,
    "name": "Ismailganj",
    "lat": 26.87,
    "lng": 81.04,
    "cost": 35,
    "roi": 55,
    "type": "Developing",
    "rent2bhk": 14000,
    "rent3bhk": 21000,
    "avgBuyPrice": 40
  },
  {
    "id": 27,
    "name": "Chinhat",
    "lat": 26.88,
    "lng": 81.06,
    "cost": 42,
    "roi": 60,
    "type": "Growth",
    "rent2bhk": 18000,
    "rent3bhk": 28000,
    "avgBuyPrice": 46.94
  },
  {
    "id": 28,
    "name": "Malhaur",
    "lat": 26.87,
    "lng": 81.03,
    "cost": 45,
    "roi": 65,
    "type": "Growth",
    "rent2bhk": 20000,
    "rent3bhk": 30000,
    "avgBuyPrice": 46.27
  },
  {
    "id": 29,
    "name": "Bijnor Road",
    "lat": 26.75,
    "lng": 80.9,
    "cost": 40,
    "roi": 60,
    "type": "Industrial Growth",
    "rent2bhk": 16000,
    "rent3bhk": 25000,
    "avgBuyPrice": 45.75
  },
  {
    "id": 30,
    "name": "Raebareli Road",
    "lat": 26.78,
    "lng": 80.9,
    "cost": 28,
    "roi": 38,
    "type": "Developing",
    "rent2bhk": 12000,
    "rent3bhk": 18000,
    "avgBuyPrice": 27
  },
  {
    "id": 31,
    "name": "Kanpur Road",
    "lat": 26.78,
    "lng": 80.88,
    "cost": 32,
    "roi": 40,
    "type": "Developing",
    "rent2bhk": 14000,
    "rent3bhk": 20000,
    "avgBuyPrice": 20.14
  },
  {
    "id": 32,
    "name": "Shaheed Path",
    "lat": 26.82,
    "lng": 81,
    "cost": 69,
    "roi": 55,
    "type": "Premium Growth",
    "rent2bhk": 30000,
    "rent3bhk": 50000,
    "avgBuyPrice": 82.8
  },
  {
    "id": 33,
    "name": "Sultanpur Road",
    "lat": 26.78,
    "lng": 81.02,
    "cost": 43,
    "roi": 70,
    "type": "Growth",
    "rent2bhk": 18000,
    "rent3bhk": 28000,
    "avgBuyPrice": 42.38
  },
  {
    "id": 34,
    "name": "Faizabad Road",
    "lat": 26.88,
    "lng": 81.04,
    "cost": 30,
    "roi": 50,
    "type": "Growth",
    "rent2bhk": 14000,
    "rent3bhk": 22000,
    "avgBuyPrice": 45.21
  },
  {
    "id": 35,
    "name": "Sitapur Road",
    "lat": 26.9,
    "lng": 80.92,
    "cost": 25,
    "roi": 45,
    "type": "Budget",
    "rent2bhk": 10000,
    "rent3bhk": 15000,
    "avgBuyPrice": 25.05
  },
  {
    "id": 36,
    "name": "Kursi Road",
    "lat": 26.91,
    "lng": 80.95,
    "cost": 30,
    "roi": 50,
    "type": "Budget Growth",
    "rent2bhk": 12000,
    "rent3bhk": 18000,
    "avgBuyPrice": 32.89
  },
  {
    "id": 37,
    "name": "Jankipuram",
    "lat": 26.92,
    "lng": 80.94,
    "cost": 42,
    "roi": 35,
    "type": "Residential",
    "rent2bhk": 15000,
    "rent3bhk": 22000,
    "avgBuyPrice": 40.63
  },
  {
    "id": 38,
    "name": "Aliganj",
    "lat": 26.88,
    "lng": 80.94,
    "cost": 65,
    "roi": 40,
    "type": "Developed",
    "rent2bhk": 22000,
    "rent3bhk": 35000,
    "avgBuyPrice": 78
  },
  {
    "id": 39,
    "name": "Hazratganj",
    "lat": 26.85,
    "lng": 80.93,
    "cost": 160,
    "roi": 30,
    "type": "Commercial Core",
    "rent2bhk": 45000,
    "rent3bhk": 80000,
    "avgBuyPrice": 192
  },
  {
    "id": 40,
    "name": "Charbagh",
    "lat": 26.83,
    "lng": 80.92,
    "cost": 50,
    "roi": 35,
    "type": "Commercial Core",
    "rent2bhk": 22000,
    "rent3bhk": 35000,
    "avgBuyPrice": 60
  },
  {
    "id": 41,
    "name": "Aminabad",
    "lat": 26.84,
    "lng": 80.91,
    "cost": 55,
    "roi": 32,
    "type": "Commercial Core",
    "rent2bhk": 24000,
    "rent3bhk": 38000,
    "avgBuyPrice": 66
  },
  {
    "id": 42,
    "name": "Chowk",
    "lat": 26.86,
    "lng": 80.9,
    "cost": 52,
    "roi": 28,
    "type": "Old Commercial",
    "rent2bhk": 20000,
    "rent3bhk": 32000,
    "avgBuyPrice": 62.4
  },
  {
    "id": 43,
    "name": "Kaiserbagh",
    "lat": 26.85,
    "lng": 80.92,
    "cost": 53,
    "roi": 30,
    "type": "Commercial Core",
    "rent2bhk": 21000,
    "rent3bhk": 34000,
    "avgBuyPrice": 63.6
  },
  {
    "id": 44,
    "name": "Vrindavan Yojna",
    "lat": 26.78,
    "lng": 80.95,
    "cost": 48,
    "roi": 45,
    "type": "Planned",
    "rent2bhk": 20000,
    "rent3bhk": 32000,
    "avgBuyPrice": 37.63
  },
  {
    "id": 45,
    "name": "Alambagh",
    "lat": 26.8,
    "lng": 80.9,
    "cost": 42,
    "roi": 30,
    "type": "Developed",
    "rent2bhk": 18000,
    "rent3bhk": 26000,
    "avgBuyPrice": 43.34
  }
]